[
    {
        "ort": "Früh am Dom",
        "adresse": "Am Hof 12-18, 50667 Köln",
        "sage": "Kölsch-Brauhaus als “must-do”",
        "shakespeare": "- Die lustigen Weiber von Windsor → Falstaff",
        "gamestory": "-",
        "lat": 50.939789,
        "lon": 6.95709
    },
    {
        "ort": "Rote Funken Plätzchen/Biermuseum",
        "adresse": "50667 Altstadt-Nord, Köln",
        "sage": "Rote Funken Eid/Alles was mit Karneval zu tun hat und die Kölsche Inschrift ist eine schöne Übersetzungsaufgabe",
        "shakespeare": "Die lustigen Weiber von Windsor - Falstaff",
        "gamestory": "In Much Ado About nothing gibt es einen Maskenball, auf dem der Prinz seinen besten Freund verkuppelt. Hier könnte also ein Verkupplungsspiel stattfinden. Evtl. \"Shakesbier\" im Fenster vom Biermuseum?",
        "lat": 50.937926,
        "lon": 6.962007
    },
    {
        "ort": "Heinzelmännchenbrunnen",
        "adresse": "Am Hof 12, 50667 Köln",
        "sage": "Heinzelmännchen erledigen nachts die Arbeiten der Kölner",
        "shakespeare": "- Romeo & Julia ",
        "gamestory": "Heinzelmännchen finden Julias Brief, bringen ihn zu Romeo - (Drama (Tod) wird verhindert, Romeo und Julia leben glücklich bis an ihr Lebensende)",
        "lat": 50.940083,
        "lon": 6.957388
    },
    {
        "ort": "Richmodis-Turm",
        "adresse": "Neumarkt, 50667 Köln",
        "sage": "„Eher galoppieren meine beiden Pferde die Turmtreppe hinauf, als dass meine Frau aus dem Grab aufersteht!“.",
        "shakespeare": "- Romeo & Julia",
        "gamestory": "Romeo wird noch von Tybald gesucht; Damit Romeo und Julia fliehen können, sollen die Richmodis-Pferde befreit werden ",
        "lat": 50.936882,
        "lon": 6.94778
    },
    {
        "ort": "Eau de Cologne - Farina",
        "adresse": "a) Farina Haus Obenmarspforten  21, 50667 Köln",
        "sage": "Duftwasser zu Ehren der Stadt Köln von Johann Maria Farina (1709), ältestes noch heute hergestelltes Parfüm der Welt,bekannteste Marke „4711“",
        "shakespeare": "- Romeo & Julia",
        "gamestory": "Als Abschiedsgeschenk möchte der Geist von Farina (Johann Maria Farina), den beiden sein Duftwasser zu Ehren der Stadt Köln überreichen",
        "lat": 50.93774,
        "lon": 6.957968
    },
    {
        "ort": "Eau de Cologne - 4711",
        "adresse": "b) Wilhelm Mühlens Haus (4711-Haus) Glockengasse 4, 50667 Köln",
        "sage": "Duftwasser zu Ehren der Stadt Köln von Johann Maria Farina (1709), ältestes noch heute hergestelltes Parfüm der Welt,bekannteste Marke „4711“",
        "shakespeare": "- Romeo & Julia",
        "gamestory": "s. Farina",
        "lat": 50.938526,
        "lon": 6.951234
    },
    {
        "ort": "Rathausturm mit Figur von Agrippina",
        "adresse": "Rathausplatz, 50667 Köln,",
        "sage": "Agrippina war drei mal verheiratet, alle Männer starben nicht lang nach der Eheschließung (wohl nicht ganz ohne ihr Zutun…). Sie wusste dabei immer, ihre Interessen geschickt durchzusetzen. Als Frau des Kaisers erreichte sie, dass ihre Geburtststadt Köln (damals noch ein Ubier-Dorf) zur römischen Stadt ernannt wurde und brachte – als erste lebende Frau – ihren Namen mit in den Stadtnamen ein. Außerdem sorgte sie dafür, dass ihr Sohn aus erster Ehe, Nero (der später Rom in Brand steckte), die Erbschaft des Kaisers, ihrem dritten Mann, antreten konnte, statt dessen leiblicher Sohn, und konnte so viel Einfluss nehmen. Letzten Endes lies eben jener sie aber auch umbringen, als er die Einmischung seiner Mutter nicht mehr hinnehmen wollte.",
        "shakespeare": "Sommernachtstraum – Titania",
        "gamestory": "- Beide waren in verschiedenartige Machtspiele verstrickt und versuchten, auf ihre Art Einfluss zu nehmen - Titania verliebt sich unter dem Einfluss des Nektars einer besonderen Blume in Bottom mit Eselskopf und weiß am nächsten Morgen nach der Aufhebung ",
        "lat": 50.938351,
        "lon": 6.959382
    },
    {
        "ort": "Narrenschiff-Brunnen mit dem Karnevals-Dreigestirn (Agrippina = Jungfrau)",
        "adresse": "alternativ: Karl-Berbuer-Platz D-50678 Köln",
        "sage": "-",
        "shakespeare": "-",
        "gamestory": "-",
        "lat": 50.928128,
        "lon": 6.957066
    },
    {
        "ort": "Dom",
        "adresse": "Domkloster 4, 50667 Köln",
        "sage": "·     Priester Zwillinge Hauser (Hochwürden im Doppelpack)/Heilige Drei Könige Dreikönigenschrein",
        "shakespeare": "Die Komödie der Irrungen/Der Kaufmann von Venedig: Porzias Rätsel mit den drei Schreinen s. Side Quest: Porzia und Falstaff",
        "gamestory": "-",
        "lat": 50.94136,
        "lon": 6.958305
    },
    {
        "ort": "Zwillingstreppe (    (Büro im Mediapark)",
        "adresse": "Im Mediapark, 50670 Köln",
        "sage": "·     Priester Zwillinge Hauser (Hochwürden im Doppelpack)",
        "shakespeare": "Die Komödie der Irrungen",
        "gamestory": "-",
        "lat": 50.947845,
        "lon": 6.944134
    },
    {
        "ort": "Rathausturm aus Sicht des alten Markt",
        "adresse": "Rathausplatz, 50667 Köln",
        "sage": "Platzjabbeck + Karl der Große - seine 3 Söhne sollen Mund so weit aufsperren wie sie können. Die von Karl in ihre Münder gelegten Apfelstücke, stehen stellvertretend für die zukünftigen Anteile am Reich",
        "shakespeare": "King Lear: Vaterliebesprüfung der 3 Töchter ->mir wahrer Zunge sprechen",
        "gamestory": "-",
        "lat": 50.938793,
        "lon": 6.959826
    },
    {
        "ort": "Monsterkopf",
        "adresse": "Zum St. Peter / Ecke Heumarkt",
        "sage": "Mahnmale die der Bischof über den Häusern der Aufständigen anbringen ließ. Kann man vielleicht als Item gebrauchen.",
        "shakespeare": "-",
        "gamestory": "-",
        "lat": 50.937325,
        "lon": 6.960096
    },
    {
        "ort": "Robert Blum Gedenktafel und Gedenktafel der Neuen Rheinischen Zeitung",
        "adresse": "Groß St. Martin und  Heumarkt 65",
        "sage": "Revolution und Belagerung des Breslauer Platzes unter Marx und Engels vom 17 - 26.09.1848",
        "shakespeare": "-",
        "gamestory": "-",
        "lat": 50.936821,
        "lon": 6.960188
    },
    {
        "ort": "Denkmal Kardinal Frings",
        "adresse": "Laurenzplatz",
        "sage": "Er prägte das Wort fringsen, was so viel bedeutet wie Diebstahl aus einer Not heraus, was er durchaus billigte (Kohlenklau). Gründer der Hilfsorganisation Miseror.  ",
        "shakespeare": "-",
        "gamestory": "Vielleicht müssen die Spieler auch fringsen.",
        "lat": 50.938534,
        "lon": 6.957819
    },
    {
        "ort": "Pfaffenpforte",
        "adresse": "Am Dom",
        "sage": "Hier ließ der BürgermeisterHermann Gryn zwei Domherren hängen, weil sie ihn zuvor von einem Löwen angreifen ließen, den er aber mit seinem Zierschwert niederstrecken konnte.",
        "shakespeare": "-",
        "gamestory": "Schöne Sidequest, in der die Gegner einen Löwen auf die Spieler hetzen.",
        "lat": 50.940273,
        "lon": 6.955797
    },
    {
        "ort": "Weckschnapp",
        "adresse": "St. Kunibert",
        "sage": "Foltergefängnis in dem die Gefangenen verhungern mussten oder bei dem Versuch ein Weckchen zu schnappen starben. ",
        "shakespeare": "-",
        "gamestory": "-",
        "lat": 50.949318,
        "lon": 6.965387
    },
    {
        "ort": "Ursulakirche ",
        "sage": "Legende von den elf Tränen auf dem Kölner Wappen.",
        "shakespeare": "Der Kaufmann von Venedig?:",
        "gamestory": " Motiv der Rache, Bsp. Schylock, oder Konflikt zwischen Religionen. Side Quest, um die elf Tränen als Item zu erwerben und/oder Ursulas Schatzkammer als Ort, wohin mann die Gebeine von William in Sicherheit bringen sollte.",
        "lat": 50.945526,
        "lon": 6.954625
    },
    {
        "ort": "Ostermannbrunnen",
        "adresse": "-",
        "sage": "-",
        "shakespeare": "-",
        "gamestory": "-",
        "lat": 50.937767,
        "lon": 6.96092
    },
    {
        "ort": "MAKK",
        "adresse": "-",
        "sage": "-",
        "shakespeare": "-",
        "gamestory": "Startpunkt",
        "lat": 50.939903,
        "lon": 6.954871
    }
]